[{"uid":"1","name":"Afghanistan","code":"AF","latitude":"33.7680065","longitude":"66.2385139"},{"uid":"276","name":"\u00c5land Islands","code":"AX","latitude":"60.2166218","longitude":"19.9438638"},{"uid":"2","name":"Albania","code":"AL","latitude":"41.000028","longitude":"19.9999619"},{"uid":"3","name":"Algeria","code":"DZ","latitude":"28.0000272","longitude":"2.9999825"},{"uid":"4","name":"American Samoa","code":"AS","latitude":"-14.289304","longitude":"-170.692511"},{"uid":"5","name":"Andorra","code":"AD","latitude":"42.5407167","longitude":"1.5732033"},{"uid":"6","name":"Angola","code":"AO","latitude":"-11.8775768","longitude":"17.5691241"},{"uid":"7","name":"Anguilla","code":"AI","latitude":"18.1954947","longitude":"-63.0750234"},{"uid":"8","name":"Antarctica","code":"AQ","latitude":"-72.8438691","longitude":"0"},{"uid":"9","name":"Antigua and Barbuda","code":"AG","latitude":"17.2234721","longitude":"-61.9554608"},{"uid":"10","name":"Argentina","code":"AR","latitude":"-34.9964963","longitude":"-64.9672817"},{"uid":"11","name":"Armenia","code":"AM","latitude":"40.7696272","longitude":"44.6736646"},{"uid":"12","name":"Aruba","code":"AW","latitude":"12.4902998","longitude":"-69.9609842"},{"uid":"14","name":"Australia","code":"AU","latitude":"-24.7761086","longitude":"134.755"},{"uid":"15","name":"Austria","code":"AT","latitude":"47.2","longitude":"13.2"},{"uid":"16","name":"Azerbaijan","code":"AZ","latitude":"40.3936294","longitude":"47.7872508"},{"uid":"17","name":"The Bahamas","code":"BS","latitude":"24.7736546","longitude":"-78.0000547"},{"uid":"18","name":"Bahrain","code":"BH","latitude":"26.1551249","longitude":"50.5344606"},{"uid":"20","name":"Bangladesh","code":"BD","latitude":"24.4768783","longitude":"90.2932426"},{"uid":"21","name":"Barbados","code":"BB","latitude":"13.1500331","longitude":"-59.5250305"},{"uid":"23","name":"Belarus","code":"BY","latitude":"53.4250605","longitude":"27.6971358"},{"uid":"24","name":"Belgium","code":"BE","latitude":"50.6402809","longitude":"4.6667145"},{"uid":"25","name":"Belize","code":"BZ","latitude":"16.8259793","longitude":"-88.7600927"},{"uid":"26","name":"Benin","code":"BJ","latitude":"9.2231105","longitude":"2.31006719638123"},{"uid":"27","name":"Bermuda","code":"BM","latitude":"32.3018217","longitude":"-64.7603583"},{"uid":"28","name":"Bhutan","code":"BT","latitude":"27.549511","longitude":"90.5119273"},{"uid":"29","name":"Bolivia","code":"BO","latitude":"-17.0568696","longitude":"-64.9912286"},{"uid":"277","name":"Bonaire, Sint Eustatius and Saba","code":"BQ","latitude":"12.153038899999999","longitude":"-68.2723827320998"},{"uid":"30","name":"Bosnia and Herzegovina","code":"BA","latitude":"44.3053476","longitude":"17.5961467"},{"uid":"31","name":"Botswana","code":"BW","latitude":"-23.1681782","longitude":"24.5928742"},{"uid":"32","name":"Bouvet Island","code":"BV","latitude":"-54.4201305","longitude":"3.3599732952297483"},{"uid":"33","name":"Brazil","code":"BR","latitude":"-10.3333333","longitude":"-53.2"},{"uid":"34","name":"British Indian Ocean Territory","code":"IO","latitude":"-5.349626649999999","longitude":"72.00648804312836"},{"uid":"35","name":"British Virgin Islands","code":"VG","latitude":"18.4024395","longitude":"-64.5661642"},{"uid":"36","name":"Brunei Darussalam","code":"BN","latitude":"4.4137155","longitude":"114.5653908"},{"uid":"37","name":"Bulgaria","code":"BG","latitude":"42.6073975","longitude":"25.4856617"},{"uid":"38","name":"Burkina Faso","code":"BF","latitude":"12.0753083","longitude":"-1.6880314"},{"uid":"39","name":"Myanmar","code":"MM","latitude":"17.1750495","longitude":"95.9999652"},{"uid":"40","name":"Burundi","code":"BI","latitude":"-3.3634357","longitude":"29.8870575"},{"uid":"41","name":"Cambodia","code":"KH","latitude":"13.5066394","longitude":"104.869423"},{"uid":"42","name":"Cameroon","code":"CM","latitude":"4.6125522","longitude":"13.1535811"},{"uid":"43","name":"Canada","code":"CA","latitude":"61.0666922","longitude":"-107.991707"},{"uid":"44","name":"Cape Verde","code":"CV","latitude":"16.0000552","longitude":"-24.0083947"},{"uid":"45","name":"Cayman Islands","code":"KY","latitude":"19.703182249999998","longitude":"-79.9174627243246"},{"uid":"46","name":"Central African Republic","code":"CF","latitude":"7.0323598","longitude":"19.9981227"},{"uid":"47","name":"Chad","code":"TD","latitude":"15.6134137","longitude":"19.0156172"},{"uid":"48","name":"Chile","code":"CL","latitude":"-31.7613365","longitude":"-71.3187697"},{"uid":"49","name":"China","code":"CN","latitude":"35.000074","longitude":"104.999927"},{"uid":"50","name":"Christmas Island","code":"CX","latitude":"-10.49124145","longitude":"105.6173514897963"},{"uid":"52","name":"Cocos (Keeling) Islands","code":"CC","latitude":"-12.0728315","longitude":"96.8409375"},{"uid":"53","name":"Colombia","code":"CO","latitude":"2.8894434","longitude":"-73.783892"},{"uid":"54","name":"Comoros","code":"KM","latitude":"-12.2045176","longitude":"44.2832964"},{"uid":"55","name":"Congo, Democratic Republic of the","code":"CD","latitude":"-4.27250705","longitude":"15.28303990586435"},{"uid":"56","name":"Congo, Republic of the","code":"CG","latitude":"-0.7179165000000001","longitude":"16.018048574081842"},{"uid":"57","name":"Cook Islands","code":"CK","latitude":"-19.919672900000002","longitude":"-157.9753368892878"},{"uid":"59","name":"Costa Rica","code":"CR","latitude":"9.5773243","longitude":"-83.82371114343024"},{"uid":"60","name":"Cote d'Ivoire","code":"CI","latitude":"7.9897371","longitude":"-5.5679458"},{"uid":"61","name":"Croatia","code":"HR","latitude":"45.5643442","longitude":"17.0118954"},{"uid":"62","name":"Cuba","code":"CU","latitude":"23.0131338","longitude":"-80.8328748"},{"uid":"278","name":"Cura\u00e7ao","code":"CW","latitude":"12.1845","longitude":"-68.9640875031406"},{"uid":"63","name":"Cyprus","code":"CY","latitude":"34.9823018","longitude":"33.1451285"},{"uid":"64","name":"Czech Republic","code":"CZ","latitude":"49.8167003","longitude":"15.4749544"},{"uid":"65","name":"Denmark","code":"DK","latitude":"55.670249","longitude":"10.3333283"},{"uid":"66","name":"Djibouti","code":"DJ","latitude":"11.85677545","longitude":"42.757784519943655"},{"uid":"67","name":"Dominica","code":"DM","latitude":"19.28131815","longitude":"-70.035906834967"},{"uid":"68","name":"Dominican Republic","code":"DO","latitude":"19.28131815","longitude":"-70.035906834967"},{"uid":"69","name":"East Timor","code":"TL","latitude":"-8.5151979","longitude":"125.8375756"},{"uid":"70","name":"Ecuador","code":"EC","latitude":"-1.3397668","longitude":"-79.3666965"},{"uid":"71","name":"Egypt","code":"EG","latitude":"26.2540493","longitude":"29.2675469"},{"uid":"72","name":"El Salvador","code":"SV","latitude":"13.8000382","longitude":"-88.9140683"},{"uid":"73","name":"Equatorial Guinea","code":"GQ","latitude":"1.613172","longitude":"10.5170357"},{"uid":"74","name":"Eritrea","code":"ER","latitude":"15.9500319","longitude":"37.9999668"},{"uid":"75","name":"Estonia","code":"EE","latitude":"58.7523778","longitude":"25.3319078"},{"uid":"76","name":"Ethiopia","code":"ET","latitude":"10.2116702","longitude":"38.6521203"},{"uid":"78","name":"Falkland Islands (Islas Malvinas)","code":"FK","latitude":"-51.783597","longitude":"-59.6446732"},{"uid":"79","name":"Faroe Islands","code":"FO","latitude":"62.0448724","longitude":"-7.0322972"},{"uid":"80","name":"Fiji","code":"FJ","latitude":"-18.1239696","longitude":"179.0122737"},{"uid":"81","name":"Finland","code":"FI","latitude":"63.2467777","longitude":"25.9209164"},{"uid":"82","name":"France","code":"FR","latitude":"46.603354","longitude":"1.8883335"},{"uid":"84","name":"French Guiana","code":"GF","latitude":"4.0039882","longitude":"-52.999998"},{"uid":"85","name":"French Polynesia","code":"PF","latitude":"-16.03442485","longitude":"-146.0490931059517"},{"uid":"86","name":"French Southern and Antarctic Lands","code":"TF","latitude":"-49.237441950000004","longitude":"69.62275903679347"},{"uid":"87","name":"Gabon","code":"GA","latitude":"-0.8999695","longitude":"11.6899699"},{"uid":"88","name":"The Gambia","code":"GM","latitude":"13.470062","longitude":"-15.4900464"},{"uid":"90","name":"Georgia","code":"GE","latitude":"32.3293809","longitude":"-83.1137366"},{"uid":"91","name":"Germany","code":"DE","latitude":"51.0834196","longitude":"10.4234469"},{"uid":"92","name":"Ghana","code":"GH","latitude":"7.8573710000000005","longitude":"-1.0840975468820433"},{"uid":"93","name":"Gibraltar","code":"GI","latitude":"36.140807","longitude":"-5.3541295"},{"uid":"95","name":"Greece","code":"GR","latitude":"38.9953683","longitude":"21.9877132"},{"uid":"96","name":"Greenland","code":"GL","latitude":"77.6192349","longitude":"-42.8125967"},{"uid":"97","name":"Grenada","code":"GD","latitude":"12.1360374","longitude":"-61.6904045"},{"uid":"98","name":"Guadeloupe","code":"GP","latitude":"16.230510250000002","longitude":"-61.68712602138846"},{"uid":"99","name":"Guam","code":"GU","latitude":"13.450125700000001","longitude":"144.75755102972062"},{"uid":"100","name":"Guatemala","code":"GT","latitude":"15.6356088","longitude":"-89.8988087"},{"uid":"279","name":"Guernsey","code":"GG","latitude":"49.4566233","longitude":"-2.5822348"},{"uid":"102","name":"Guinea","code":"GN","latitude":"10.7226226","longitude":"-10.7083587"},{"uid":"103","name":"Guinea-Bissau","code":"GW","latitude":"11.6688305","longitude":"-15.535471371611191"},{"uid":"104","name":"Guyana","code":"GY","latitude":"4.8417097","longitude":"-58.6416891"},{"uid":"105","name":"Haiti","code":"HT","latitude":"19.1399952","longitude":"-72.3570972"},{"uid":"106","name":"Heard Island and McDonald Islands","code":"HM","latitude":"-53.0166353","longitude":"72.955751"},{"uid":"107","name":"Holy See (Vatican City)","code":"VA","latitude":"0.3233308","longitude":"32.6231757"},{"uid":"108","name":"Honduras","code":"HN","latitude":"15.2572432","longitude":"-86.0755145"},{"uid":"109","name":"Hong Kong (SAR)","code":"HK","latitude":"-26.1622812","longitude":"28.3919992"},{"uid":"111","name":"Hungary","code":"HU","latitude":"47.1817585","longitude":"19.5060937"},{"uid":"112","name":"Iceland","code":"IS","latitude":"64.9841821","longitude":"-18.1059013"},{"uid":"113","name":"India","code":"IN","latitude":"22.3511148","longitude":"78.6677428"},{"uid":"114","name":"Indonesia","code":"ID","latitude":"-2.4833826","longitude":"117.8902853"},{"uid":"115","name":"Iran","code":"IR","latitude":"32.6475314","longitude":"54.5643516"},{"uid":"116","name":"Iraq","code":"IQ","latitude":"33.0955793","longitude":"44.1749775"},{"uid":"117","name":"Ireland","code":"IE","latitude":"52.865196","longitude":"-7.9794599"},{"uid":"280","name":"Isle of Man","code":"IM","latitude":"54.1936805","longitude":"-4.5591148"},{"uid":"118","name":"Israel","code":"IL","latitude":"31.5313113","longitude":"34.8667654"},{"uid":"119","name":"Italy","code":"IT","latitude":"42.6384261","longitude":"12.674297"},{"uid":"120","name":"Jamaica","code":"JM","latitude":"18.1850507","longitude":"-77.3947693"},{"uid":"122","name":"Japan","code":"JP","latitude":"36.5748441","longitude":"139.2394179"},{"uid":"281","name":"Jersey","code":"JE","latitude":"49.2214561","longitude":"-2.1358386"},{"uid":"126","name":"Jordan","code":"JO","latitude":"31.1667049","longitude":"36.941628"},{"uid":"128","name":"Kazakhstan","code":"KZ","latitude":"47.2286086","longitude":"65.2093197"},{"uid":"129","name":"Kenya","code":"KE","latitude":"1.4419683","longitude":"38.4313975"},{"uid":"131","name":"Kiribati","code":"KI","latitude":"-1.2394555500000002","longitude":"175.29694553869794"},{"uid":"132","name":"Korea, North","code":"KP","latitude":"61.18541105","longitude":"6.81350883350348"},{"uid":"133","name":"Korea, South","code":"KR","latitude":"36.638392","longitude":"127.6961188"},{"uid":"134","name":"Kuwait","code":"KW","latitude":"29.2733964","longitude":"47.4979476"},{"uid":"135","name":"Kyrgyzstan","code":"KG","latitude":"41.5089324","longitude":"74.724091"},{"uid":"136","name":"Laos","code":"LA","latitude":"20.0171109","longitude":"103.378253"},{"uid":"137","name":"Latvia","code":"LV","latitude":"56.8406494","longitude":"24.7537645"},{"uid":"138","name":"Lebanon","code":"LB","latitude":"33.8750629","longitude":"35.843409"},{"uid":"139","name":"Lesotho","code":"LS","latitude":"-29.6039267","longitude":"28.3350193"},{"uid":"140","name":"Liberia","code":"LR","latitude":"5.7499721","longitude":"-9.3658524"},{"uid":"141","name":"Libya","code":"LY","latitude":"26.8234472","longitude":"18.1236723"},{"uid":"142","name":"Liechtenstein","code":"LI","latitude":"47.1416307","longitude":"9.5531527"},{"uid":"143","name":"Lithuania","code":"LT","latitude":"55.3500003","longitude":"23.7499997"},{"uid":"144","name":"Luxembourg","code":"LU","latitude":"49.8158683","longitude":"6.1296751"},{"uid":"145","name":"Macao","code":"MO","latitude":"22.1757605","longitude":"113.5514142"},{"uid":"147","name":"Madagascar","code":"MG","latitude":"-18.9249604","longitude":"46.4416422"},{"uid":"148","name":"Malawi","code":"MW","latitude":"-13.2687204","longitude":"33.9301963"},{"uid":"149","name":"Malaysia","code":"MY","latitude":"4.5693754","longitude":"102.2656823"},{"uid":"150","name":"Maldives","code":"MV","latitude":"4.7064352","longitude":"73.3287853"},{"uid":"151","name":"Mali","code":"ML","latitude":"16.3700359","longitude":"-2.2900239"},{"uid":"152","name":"Malta","code":"MT","latitude":"35.9446731","longitude":"14.383630615858262"},{"uid":"154","name":"Marshall Islands","code":"MH","latitude":"8.9995549","longitude":"168.0002575"},{"uid":"155","name":"Martinique","code":"MQ","latitude":"14.6367927","longitude":"-61.01582685063731"},{"uid":"156","name":"Mauritania","code":"MR","latitude":"20.2540382","longitude":"-9.2399263"},{"uid":"157","name":"Mauritius","code":"MU","latitude":"-20.2759451","longitude":"57.5703566"},{"uid":"158","name":"Mayotte","code":"YT","latitude":"-12.8253862","longitude":"45.148626111147614"},{"uid":"159","name":"Mexico","code":"MX","latitude":"22.5000485","longitude":"-100.0000375"},{"uid":"160","name":"Micronesia, Federated States of","code":"FM","latitude":"8.6065","longitude":"152.00846930625"},{"uid":"163","name":"Moldova","code":"MD","latitude":"47.2879608","longitude":"28.5670941"},{"uid":"164","name":"Monaco","code":"MC","latitude":"43.73844905","longitude":"7.424224092532953"},{"uid":"165","name":"Mongolia","code":"MN","latitude":"46.8250388","longitude":"103.8499736"},{"uid":"282","name":"Montenegro","code":"ME","latitude":"42.9868853","longitude":"19.5180992"},{"uid":"167","name":"Montserrat","code":"MS","latitude":"16.7417041","longitude":"-62.1916844"},{"uid":"168","name":"Morocco","code":"MA","latitude":"31.1728205","longitude":"-7.3362482"},{"uid":"169","name":"Mozambique","code":"MZ","latitude":"-19.302233","longitude":"34.9144977"},{"uid":"171","name":"Namibia","code":"NA","latitude":"-23.2335499","longitude":"17.3231107"},{"uid":"172","name":"Nauru","code":"NR","latitude":"-0.5252306","longitude":"166.9324426"},{"uid":"174","name":"Nepal","code":"NP","latitude":"28.1083929","longitude":"84.0917139"},{"uid":"175","name":"Netherlands","code":"NL","latitude":"52.5001698","longitude":"5.7480821"},{"uid":"177","name":"New Caledonia","code":"NC","latitude":"-20.454288599999998","longitude":"164.55660583077983"},{"uid":"178","name":"New Zealand","code":"NZ","latitude":"-41.5000831","longitude":"172.8344077"},{"uid":"179","name":"Nicaragua","code":"NI","latitude":"12.6090157","longitude":"-85.2936911"},{"uid":"180","name":"Niger","code":"NE","latitude":"17.7356214","longitude":"9.3238432"},{"uid":"181","name":"Nigeria","code":"NG","latitude":"9.6000359","longitude":"7.9999721"},{"uid":"182","name":"Niue","code":"NU","latitude":"-19.0536414","longitude":"-169.861341"},{"uid":"183","name":"Norfolk Island","code":"NF","latitude":"-29.0289575","longitude":"167.9587289126371"},{"uid":"184","name":"Northern Mariana Islands","code":"MP","latitude":"14.149020499999999","longitude":"145.21345248318923"},{"uid":"185","name":"Norway","code":"NO","latitude":"60.5000209","longitude":"9.0999715"},{"uid":"186","name":"Oman","code":"OM","latitude":"21.0000287","longitude":"57.0036901"},{"uid":"187","name":"Pakistan","code":"PK","latitude":"30.3308401","longitude":"71.247499"},{"uid":"188","name":"Palau","code":"PW","latitude":"7.3245000000000005","longitude":"134.496454875"},{"uid":"190","name":"Panama","code":"PA","latitude":"8.559559","longitude":"-81.1308434"},{"uid":"191","name":"Papua New Guinea","code":"PG","latitude":"-5.6816069","longitude":"144.2489081"},{"uid":"193","name":"Paraguay","code":"PY","latitude":"-23.3165935","longitude":"-58.1693445"},{"uid":"194","name":"Peru","code":"PE","latitude":"-6.8699697","longitude":"-75.0458515"},{"uid":"195","name":"Philippines","code":"PH","latitude":"12.7503486","longitude":"122.7312101"},{"uid":"196","name":"Pitcairn Islands","code":"PN","latitude":"-25.0657719","longitude":"-130.1017823"},{"uid":"197","name":"Poland","code":"PL","latitude":"52.215933","longitude":"19.134422"},{"uid":"198","name":"Portugal","code":"PT","latitude":"40.0332629","longitude":"-7.8896263"},{"uid":"199","name":"Puerto Rico","code":"PR","latitude":"18.2214149","longitude":"-66.41328179513847"},{"uid":"200","name":"Qatar","code":"QA","latitude":"25.3336984","longitude":"51.2295295"},{"uid":"201","name":"R\u00e9union","code":"RE","latitude":"-21.130737949999997","longitude":"55.536480112992315"},{"uid":"202","name":"Romania","code":"RO","latitude":"45.9852129","longitude":"24.6859225"},{"uid":"203","name":"Russia","code":"RU","latitude":"64.6863136","longitude":"97.7453061"},{"uid":"204","name":"Rwanda","code":"RW","latitude":"-1.9646631","longitude":"30.0644358"},{"uid":"283","name":"Saint Barth\u00e9lemy","code":"BL","latitude":"17.9036287","longitude":"-62.811568843006896"},{"uid":"205","name":"Saint Helena","code":"SH","latitude":"-15.9694573","longitude":"-5.7129442"},{"uid":"206","name":"Saint Kitts and Nevis","code":"KN","latitude":"17.250512","longitude":"-62.6725973"},{"uid":"207","name":"Saint Lucia","code":"LC","latitude":"13.8250489","longitude":"-60.975036"},{"uid":"284","name":"Saint Martin (French part)","code":"MF","latitude":"18.085493","longitude":"-63.05129209796061"},{"uid":"208","name":"Saint Pierre and Miquelon","code":"PM","latitude":"46.783246899999995","longitude":"-56.195158907484085"},{"uid":"209","name":"Saint Vincent and the Grenadines","code":"VC","latitude":"12.90447","longitude":"-61.2765569"},{"uid":"210","name":"Samoa","code":"WS","latitude":"-13.7693895","longitude":"-172.1200508"},{"uid":"211","name":"San Marino","code":"SM","latitude":"43.9458623","longitude":"12.458306"},{"uid":"212","name":"S\u00e3o Tom\u00e9 and Pr\u00edncipe","code":"ST","latitude":"0.8875498","longitude":"6.9648718"},{"uid":"213","name":"Saudi Arabia","code":"SA","latitude":"25.6242618","longitude":"42.3528328"},{"uid":"214","name":"Senegal","code":"SN","latitude":"14.46517725","longitude":"-14.765340959100413"},{"uid":"285","name":"Serbia","code":"RS","latitude":"44.1534121","longitude":"20.55144"},{"uid":"217","name":"Seychelles","code":"SC","latitude":"-4.6574977","longitude":"55.4540146"},{"uid":"218","name":"Sierra Leone","code":"SL","latitude":"8.6400349","longitude":"-11.8400269"},{"uid":"219","name":"Singapore","code":"SG","latitude":"1.357107","longitude":"103.8194992"},{"uid":"286","name":"Sint Maarten (Dutch part)","code":"SX","latitude":"18.02663695","longitude":"-63.04388302070092"},{"uid":"220","name":"Slovakia","code":"SK","latitude":"48.6726975","longitude":"19.63679421037233"},{"uid":"221","name":"Slovenia","code":"SI","latitude":"45.8133113","longitude":"14.4808369"},{"uid":"222","name":"Solomon Islands","code":"SB","latitude":"-8.7053941","longitude":"159.1070693851845"},{"uid":"223","name":"Somalia","code":"SO","latitude":"8.3676771","longitude":"49.083416"},{"uid":"224","name":"South Africa","code":"ZA","latitude":"-28.8166236","longitude":"24.991639"},{"uid":"225","name":"South Georgia and the South Sandwich Islands","code":"GS","latitude":"-54.8432857","longitude":"-35.8090698"},{"uid":"287","name":"South Sudan","code":"SS","latitude":"7.8699431","longitude":"29.6667897"},{"uid":"226","name":"Spain","code":"ES","latitude":"39.3260685","longitude":"-4.8379791"},{"uid":"228","name":"Sri Lanka","code":"LK","latitude":"7.5554942","longitude":"80.7137847"},{"uid":"229","name":"Sudan","code":"SD","latitude":"14.5844444","longitude":"29.4917691"},{"uid":"230","name":"Suriname","code":"SR","latitude":"4.1413025","longitude":"-56.0771187"},{"uid":"231","name":"Svalbard","code":"SJ","latitude":"78.7198519","longitude":"20.3493328"},{"uid":"232","name":"Swaziland","code":"SZ","latitude":"-26.5624806","longitude":"31.3991317"},{"uid":"233","name":"Sweden","code":"SE","latitude":"59.6749712","longitude":"14.5208584"},{"uid":"234","name":"Switzerland","code":"CH","latitude":"46.813331250000005","longitude":"8.444947437939408"},{"uid":"235","name":"Syria","code":"SY","latitude":"34.6401861","longitude":"39.0494106"},{"uid":"236","name":"Taiwan","code":"TW","latitude":"23.9739374","longitude":"120.9820179"},{"uid":"237","name":"Tajikistan","code":"TJ","latitude":"38.6281733","longitude":"70.8156541"},{"uid":"238","name":"Tanzania","code":"TZ","latitude":"-6.5247123","longitude":"35.7878438"},{"uid":"239","name":"Thailand","code":"TH","latitude":"14.8971921","longitude":"100.83273"},{"uid":"240","name":"Togo","code":"TG","latitude":"8.7800265","longitude":"1.0199765"},{"uid":"241","name":"Tokelau","code":"TK","latitude":"-9.1676396","longitude":"-171.819687"},{"uid":"242","name":"Tonga","code":"TO","latitude":"-19.9160819","longitude":"-175.2026424"},{"uid":"243","name":"Trinidad and Tobago","code":"TT","latitude":"10.8677845","longitude":"-60.9821067"},{"uid":"245","name":"Tunisia","code":"TN","latitude":"33.8439408","longitude":"9.400138"},{"uid":"246","name":"Turkey","code":"TR","latitude":"38.9597594","longitude":"34.9249653"},{"uid":"247","name":"Turkmenistan","code":"TM","latitude":"39.3763807","longitude":"59.3924609"},{"uid":"248","name":"Turks and Caicos Islands","code":"TC","latitude":"21.7214683","longitude":"-71.6201783"},{"uid":"249","name":"Tuvalu","code":"TV","latitude":"-8.6405212","longitude":"179.1582918181797"},{"uid":"250","name":"Uganda","code":"UG","latitude":"1.5333554","longitude":"32.2166578"},{"uid":"251","name":"Ukraine","code":"UA","latitude":"49.4871968","longitude":"31.2718321"},{"uid":"252","name":"United Arab Emirates","code":"AE","latitude":"24.0002488","longitude":"53.9994829"},{"uid":"253","name":"United Kingdom","code":"GB","latitude":"54.7023545","longitude":"-3.2765753"},{"uid":"254","name":"United States","code":"US","latitude":"39.7837304","longitude":"-100.4458825"},{"uid":"256","name":"Uruguay","code":"UY","latitude":"-32.8755548","longitude":"-56.0201525"},{"uid":"257","name":"Uzbekistan","code":"UZ","latitude":"41.32373","longitude":"63.9528098"},{"uid":"258","name":"Vanuatu","code":"VU","latitude":"-16.5255069","longitude":"168.1069154"},{"uid":"259","name":"Venezuela","code":"VE","latitude":"8.0018709","longitude":"-66.1109318"},{"uid":"260","name":"Vietnam","code":"VN","latitude":"13.2904027","longitude":"108.4265113"},{"uid":"261","name":"Virgin Islands","code":"VI","latitude":"18.4024395","longitude":"-64.5661642"},{"uid":"265","name":"Wallis and Futuna","code":"WF","latitude":"-13.289402","longitude":"-176.204224"},{"uid":"267","name":"Western Sahara","code":"EH","latitude":"24.1188663","longitude":"-13.950892328363645"},{"uid":"270","name":"Yemen","code":"YE","latitude":"16.3471243","longitude":"47.8915271"},{"uid":"273","name":"Zambia","code":"ZM","latitude":"-14.5189121","longitude":"27.5589884"},{"uid":"274","name":"Zimbabwe","code":"ZW","latitude":"-19.01688","longitude":"29.35365015971339"}]
